City Id,City,Country,Date,Latitude,Longitude,Temperature,Max Temperature,Humidity,Wind Speed,Cloudiness
1,laguna,US,1586629014,38.42,-121.42,58.6,63.0,77,8.05,90
2,kahului,US,1586629030,20.89,-156.47,72.52,77.0,69,13.87,1
3,acapulco,MX,1586629338,16.86,-99.89,84.2,84.2,74,6.93,40
4,hermanus,ZA,1586629090,-34.42,19.23,67.75,70.0,76,3.0,100
5,sao filipe,CV,1586629339,14.9,-24.5,77.7,77.7,69,11.54,10
6,qaanaaq,GL,1586628726,77.48,-69.36,13.87,13.87,78,3.33,77
7,broome,US,1586629221,42.25,-75.83,43.48,46.99,38,17.22,1
8,rantepao,ID,1586629339,-2.97,119.9,66.42,66.42,72,1.88,85
9,bluff,NZ,1586628995,-46.6,168.33,54.0,54.0,74,4.0,100
10,barrow,US,1586628965,71.29,-156.79,-7.6,-7.6,83,10.29,90
11,collierville,US,1586629340,35.04,-89.66,66.43,69.01,32,5.82,20
12,esperance,AU,1586628993,-33.87,121.9,68.0,68.0,68,17.22,81
13,almeirim,BR,1586629340,-1.52,-52.58,87.12,87.12,66,1.05,93
14,najran,SA,1586629195,17.49,44.13,86.0,86.0,23,11.41,40
15,bad krozingen,DE,1586629340,47.92,7.7,66.06,73.0,35,5.82,26
16,bambous virieux,MU,1586628990,-20.34,57.76,76.05,77.0,83,10.29,40
17,ushuaia,AR,1586629015,-54.8,-68.3,46.4,46.4,77,24.16,75
18,clyde river,CA,1586629129,70.47,-68.59,6.8,6.8,84,17.22,75
19,new norfolk,AU,1586629133,-42.78,147.06,48.67,52.0,62,9.17,90
20,rikitea,PF,1586629341,-23.12,-134.97,76.73,76.73,74,3.83,94
21,arraial do cabo,BR,1586629006,-22.97,-42.03,74.16,75.2,83,13.87,75
22,atuona,PF,1586629185,-9.8,-139.03,82.27,82.27,72,7.99,97
23,nikolskoye,RU,1586629342,59.7,30.79,33.53,35.6,80,6.71,75
24,kamaishi,JP,1586629276,39.27,141.88,40.37,40.37,71,7.11,6
25,merauke,ID,1586629342,-8.47,140.33,77.81,77.81,89,7.38,82
26,mataura,NZ,1586629342,-46.19,168.86,53.01,53.01,75,3.0,100
27,cuenca,EC,1586629342,-2.88,-78.98,66.2,66.2,63,2.24,90
28,portland,US,1586628627,45.52,-122.68,51.37,55.0,57,1.5,75
29,puerto del rosario,ES,1586629343,28.5,-13.86,69.8,69.8,77,18.34,75
30,salalah,OM,1586629050,17.02,54.09,82.4,82.4,78,9.17,75
31,torbay,CA,1586629044,47.67,-52.73,43.81,46.0,65,25.28,75
32,bredasdorp,ZA,1586629021,-34.53,20.04,67.03,70.0,82,3.36,100
33,dingle,PH,1586629221,11.0,122.67,77.4,77.4,73,5.68,2
34,albany,US,1586629037,42.6,-73.97,43.25,48.99,36,18.34,75
35,nouadhibou,MR,1586629343,20.93,-17.03,75.2,75.2,57,18.34,0
36,provideniya,RU,1586629025,64.38,-173.3,27.14,27.14,97,3.29,99
37,kruisfontein,ZA,1586629073,-34.0,24.73,64.45,64.45,55,2.82,100
38,chokurdakh,RU,1586629296,70.63,147.92,27.16,27.16,97,14.36,100
39,avarua,CK,1586629028,-21.21,-159.78,78.8,78.8,100,3.36,65
40,bilibino,RU,1586629344,68.05,166.44,4.17,4.17,89,1.34,97
41,ribeira grande,PT,1586629066,38.52,-28.7,64.4,64.4,77,4.7,20
42,bushehr,IR,1586629344,28.97,50.84,75.2,75.2,73,9.93,90
43,la rioja,ES,1586629345,42.25,-2.5,55.67,59.0,93,3.36,90
44,aktash,RU,1586629237,50.3,87.73,21.16,21.16,50,4.29,0
45,olavarria,AR,1586629057,-36.89,-60.32,71.01,71.01,52,3.0,14
46,hobart,AU,1586629001,-42.88,147.33,49.26,52.0,62,9.17,90
47,prince rupert,CA,1586629053,54.32,-130.32,48.2,48.2,34,2.24,1
48,taber,CA,1586629346,49.82,-112.15,24.91,25.0,73,18.34,90
49,kapaa,US,1586628664,22.08,-159.32,71.04,73.4,73,11.41,1
50,yellowknife,CA,1586629017,62.46,-114.35,13.12,14.0,56,13.87,20
51,lata,PT,1586629082,40.16,-8.33,60.15,62.01,77,9.17,75
52,kathu,TH,1586629236,7.92,98.33,80.6,80.6,88,1.12,20
53,faanui,PF,1586629052,-16.48,-151.75,82.94,82.94,73,9.4,100
54,tiksi,RU,1586629026,71.69,128.87,17.51,17.51,94,17.43,28
55,punta arenas,CL,1586628964,-53.15,-70.92,48.67,50.0,66,18.34,75
56,tessalit,ML,1586629045,20.2,1.01,95.4,95.4,8,6.2,0
57,bitung,ID,1586629347,1.45,125.18,73.4,73.4,94,2.24,20
58,hervey bay,AU,1586629347,-25.3,152.85,69.84,70.0,77,3.36,40
59,xining,CN,1586629100,36.62,101.77,37.09,37.09,24,0.43,0
60,port lincoln,AU,1586629171,-34.73,135.87,55.89,55.89,66,9.35,59
61,troitsko-pechorsk,RU,1586629147,62.71,56.2,28.47,28.47,94,1.72,99
62,dikson,RU,1586628981,73.51,80.55,13.53,13.53,92,5.86,100
63,fiche,ET,1586629348,9.8,38.73,59.29,59.29,26,6.55,55
64,hithadhoo,MV,1586629349,-0.6,73.08,85.06,85.06,65,6.69,49
65,tasiilaq,GL,1586629149,65.61,-37.64,32.0,32.0,90,14.99,40
66,uruzgan,AF,1586629349,32.83,66.0,54.55,54.55,41,3.13,89
67,huarmey,PE,1586629349,-10.07,-78.15,80.83,80.83,61,11.16,71
68,taksimo,RU,1586629349,56.34,114.88,34.97,34.97,62,1.1,94
69,havre-saint-pierre,CA,1586629155,50.23,-63.6,39.2,39.2,48,12.75,75
70,buraydah,SA,1586629350,26.33,43.98,73.4,73.4,33,14.99,16
71,grindavik,IS,1586629350,63.84,-22.43,44.44,48.2,80,19.46,20
72,cherskiy,RU,1586629094,68.75,161.3,11.71,11.71,96,11.54,100
73,isangel,VU,1586628821,-19.55,169.27,77.29,77.29,61,8.61,37
74,padang,ID,1586629193,-0.95,100.35,79.81,79.81,73,4.23,100
75,busselton,AU,1586629351,-33.65,115.33,67.95,69.01,53,6.13,100
76,limenaria,GR,1586629351,40.63,24.58,60.94,61.0,72,3.36,40
77,opunake,NZ,1586629351,-39.46,173.86,55.44,60.01,81,10.0,48
78,blue springs,US,1586629351,39.02,-94.28,65.62,68.0,52,23.04,1
79,kavieng,PG,1586629166,-2.57,150.8,82.92,82.92,74,4.68,97
80,springfield,US,1586629210,37.22,-93.3,55.17,62.01,71,20.8,90
81,ilulissat,GL,1586629055,69.22,-51.1,33.8,33.8,69,10.29,75
82,castro,BR,1586628986,-24.79,-50.01,71.26,71.26,42,3.18,63
83,cape town,ZA,1586629017,-33.93,18.42,64.17,64.99,88,17.22,40
84,saint-philippe,RE,1586628738,-21.36,55.77,69.49,77.0,83,5.82,57
85,poum,NC,1586629353,-20.23,164.02,77.81,77.81,72,10.31,37
86,jamestown,US,1586629130,42.1,-79.24,41.67,46.0,47,11.41,1
87,nueva helvecia,UY,1586629353,-34.3,-57.23,71.56,73.0,73,9.17,20
88,santa rosa,PH,1586629353,14.31,121.11,82.13,82.4,74,3.36,75
89,upernavik,GL,1586629052,72.79,-56.15,21.72,21.72,90,1.41,100
90,kununurra,AU,1586629353,-15.77,128.73,77.0,77.0,83,3.36,90
91,chapais,CA,1586629273,49.78,-74.85,30.2,30.2,58,12.75,90
92,muros,ES,1586629354,42.78,-9.06,58.78,61.0,87,6.93,75
93,pasni,PK,1586629213,25.26,63.47,79.16,79.16,73,6.6,58
94,neiafu,TO,1586629354,-18.65,-173.98,66.2,66.2,100,9.44,20
95,port blair,IN,1586629330,11.67,92.75,82.76,82.76,71,6.69,67
96,klaksvik,FO,1586629032,62.23,-6.59,44.6,44.6,93,5.82,100
97,luderitz,NA,1586629054,-26.65,15.16,73.4,73.4,49,9.17,0
98,lawrenceburg,US,1586629355,38.04,-84.9,59.88,63.0,26,5.82,1
99,asau,RO,1586629355,46.43,26.4,49.62,55.4,30,3.36,80
100,necochea,AR,1586629355,-38.55,-58.74,73.92,75.99,49,11.99,6
101,shenkursk,RU,1586629355,62.11,42.9,26.94,26.94,91,1.59,100
102,grimshaw,CA,1586629356,56.18,-117.6,26.1,28.0,41,16.11,75
103,iquitos,PE,1586629076,-3.75,-73.25,42.8,42.8,100,4.7,75
104,ponta delgada,PT,1586629082,37.73,-25.67,62.6,62.6,63,18.34,20
105,mafeteng,LS,1586629356,-29.82,27.24,61.02,61.02,34,6.69,59
106,ponta do sol,PT,1586629206,32.67,-17.1,61.23,64.4,68,10.29,75
107,hilo,US,1586628844,19.73,-155.09,69.42,75.0,73,3.36,1
108,carauari,BR,1586629063,-4.88,-66.9,91.06,91.06,50,1.74,53
109,saldanha,ZA,1586629140,-33.01,17.94,66.2,66.2,82,4.7,85
110,mayya,RU,1586629357,61.73,130.28,30.2,30.2,74,4.47,99
111,porto novo,BJ,1586629357,6.5,2.6,86.0,86.0,74,10.29,40
112,beringovskiy,RU,1586628728,63.05,179.32,7.12,7.12,93,11.01,94
113,licheng,CN,1586629357,23.3,113.83,64.0,68.0,67,11.18,75
114,orillia,CA,1586629358,44.61,-79.42,40.03,42.01,38,14.99,1
115,cayenne,GF,1586629358,4.93,-52.33,87.8,87.8,58,12.75,75
116,alofi,NU,1586628908,-19.06,-169.92,66.2,66.2,100,3.36,100
117,bandarbeyla,SO,1586629358,9.49,50.81,81.63,81.63,72,12.88,2
118,barra do bugres,BR,1586629358,-15.07,-57.18,88.36,88.36,54,2.42,43
119,mahebourg,MU,1586629105,-20.41,57.7,75.9,77.0,83,10.29,40
120,black river,JM,1586629359,18.03,-77.85,86.0,86.0,70,18.34,20
121,talcahuano,CL,1586629359,-36.72,-73.12,66.2,66.2,55,12.75,36
122,east london,ZA,1586629101,-33.02,27.91,74.05,74.05,74,12.88,100
123,giyon,ET,1586629360,8.53,37.98,68.58,68.58,31,11.63,71
124,tuktoyaktuk,CA,1586628752,69.45,-133.04,-5.8,-5.8,76,4.7,75
125,leh,IN,1586629360,34.17,77.58,35.33,35.33,17,1.14,17
126,la palma,US,1586629360,33.85,-118.05,61.61,64.99,59,6.02,75
127,comodoro rivadavia,AR,1586629128,-45.87,-67.5,62.6,62.6,33,12.75,20
128,alugan,PH,1586629361,12.22,125.48,77.47,77.47,79,2.46,40
129,souillac,MU,1586629188,-20.52,57.52,76.5,78.01,83,10.29,40
130,bethel,US,1586629196,41.37,-73.41,49.87,53.01,33,13.87,40
131,nara,JP,1586629361,34.69,135.8,46.53,51.8,62,11.41,100
132,caravelas,BR,1586629178,-17.71,-39.25,81.86,81.86,78,12.33,45
133,zyryanovsk,KZ,1586629362,49.74,84.27,33.01,33.01,68,3.96,0
134,bengkulu,ID,1586629102,-3.8,102.27,79.27,79.27,79,2.73,37
135,lompoc,US,1586628866,34.64,-120.46,61.81,68.0,72,8.05,40
136,tura,IN,1586628855,25.52,90.22,74.68,74.68,37,3.18,17
137,kodiak,US,1586628753,57.79,-152.41,39.2,39.2,80,17.22,90
138,victoria,HK,1586629062,22.29,114.16,67.28,68.0,88,10.29,40
139,sitka,US,1586629135,57.05,-135.33,38.44,39.2,48,3.36,1
140,charters towers,AU,1586629362,-20.1,146.27,72.48,72.48,68,2.21,70
141,luwuk,ID,1586629363,-0.95,122.79,80.26,80.26,71,6.85,3
142,yumen,CN,1586628970,40.28,97.2,46.94,46.94,21,7.0,82
143,florida,US,1586629355,28.75,-82.5,81.55,84.2,39,4.7,1
144,thompson,CA,1586628912,55.74,-97.86,24.8,24.8,68,6.93,90
145,saint george,US,1586629159,37.1,-113.58,59.32,62.01,47,4.88,1
146,port-gentil,GA,1586629363,-0.72,8.78,80.49,80.49,80,10.78,99
147,altay,CN,1586629354,47.87,88.12,43.72,43.72,39,5.1,64
148,kaitangata,NZ,1586629200,-46.28,169.85,51.01,51.01,89,5.35,87
149,puerto ayora,EC,1586629098,-0.74,-90.35,84.78,86.0,70,11.41,75
150,oparino,RU,1586629364,59.85,48.28,25.63,25.63,95,3.22,100
151,nadym,RU,1586629364,65.53,72.52,31.39,31.39,97,15.3,100
152,hasaki,JP,1586629364,35.73,140.83,45.28,46.4,100,5.82,75
153,san jeronimo,PE,1586629364,-11.95,-75.28,63.32,63.32,18,6.62,65
154,adre,TD,1586629365,13.47,22.2,87.51,87.51,12,13.31,86
155,fortuna,US,1586628997,40.6,-124.16,53.76,57.99,100,8.05,90
156,shimoda,JP,1586629365,34.67,138.95,48.83,51.01,76,3.36,75
157,yerbogachen,RU,1586629365,61.28,108.01,26.55,26.55,94,6.78,15
158,carnarvon,AU,1586629078,-24.87,113.63,77.0,77.0,100,14.99,40
159,port alfred,ZA,1586629003,-33.59,26.89,68.0,68.0,91,5.01,100
160,sehithwa,BW,1586629366,-20.47,22.72,74.25,74.25,47,3.2,36
161,amapa,BR,1586629366,1.0,-52.0,81.28,81.28,89,4.68,90
162,bathsheba,BB,1586629250,13.22,-59.52,87.8,87.8,55,14.99,20
163,auki,SB,1586629345,-8.77,160.7,81.73,81.73,76,5.77,98
164,aklavik,CA,1586629023,68.22,-135.01,6.4,6.8,84,5.82,20
165,nemuro,JP,1586629366,43.32,145.57,30.49,30.49,91,9.89,36
166,jiangyou,CN,1586629163,31.77,104.72,56.98,56.98,45,1.25,62
167,marsa matruh,EG,1586629208,31.35,27.25,61.84,61.84,66,8.16,0
168,nanortalik,GL,1586629367,60.14,-45.24,39.31,39.31,69,27.51,95
169,vaini,TO,1586628722,-21.2,-175.2,64.4,64.4,93,2.24,20
170,quelimane,MZ,1586629367,-17.88,36.89,78.8,78.8,78,4.7,20
171,mehamn,NO,1586629367,71.04,27.85,22.8,22.8,89,1.7,92
172,douala,CM,1586629317,4.05,9.7,78.8,78.8,88,2.24,75
173,nome,US,1586629030,64.5,-165.41,21.2,21.2,92,9.17,40
174,tamala,RU,1586629147,52.54,43.25,35.89,35.89,86,11.7,100
175,vestmannaeyjar,IS,1586629368,63.44,-20.27,44.6,44.6,93,9.17,90
176,sao joao da barra,BR,1586629368,-21.64,-41.05,77.0,77.0,73,12.75,90
177,yar-sale,RU,1586629368,66.83,70.83,19.8,19.8,95,11.48,70
178,lasa,IT,1586629132,46.62,10.7,59.79,71.6,37,2.24,42
179,ratne,UA,1586629369,51.67,24.53,41.04,41.04,60,5.86,0
180,olga,RU,1586629369,43.74,135.29,28.9,28.9,90,3.89,21
181,emerald,AU,1586629369,-23.53,148.17,68.58,69.8,46,6.93,43
182,kitami,JP,1586629370,43.8,143.89,22.21,22.21,93,1.83,48
183,qaqortoq,GL,1586629111,60.72,-46.03,55.4,55.4,20,26.4,75
184,inegol,TR,1586629370,40.08,29.51,56.66,57.2,44,5.82,28
185,leningradskiy,RU,1586629075,69.38,178.42,7.84,7.84,84,4.12,100
186,kavaratti,IN,1586629370,10.57,72.64,85.01,85.01,68,4.03,1
187,savannah bight,HN,1586629371,16.45,-85.85,81.81,81.81,77,20.11,65
188,ojinaga,MX,1586629371,29.57,-104.42,78.8,78.8,14,5.82,1
189,sur,OM,1586629031,22.57,59.53,81.01,81.01,65,12.41,30
190,constitucion,CL,1586629181,-35.33,-72.42,62.85,62.85,60,12.77,100
191,ligayan,PH,1586629371,4.65,119.47,83.32,83.32,67,0.96,10
192,kulai,MY,1586629371,1.66,103.6,80.22,82.4,94,3.94,20
193,oskemen,KZ,1586629371,49.96,82.61,28.4,28.4,86,4.47,37
194,hofn,IS,1586629106,64.25,-15.21,41.32,41.32,83,20.27,81
195,christchurch,NZ,1586629240,-43.53,172.63,50.45,59.0,100,6.93,89
196,butaritari,KI,1586628974,3.07,172.79,83.77,83.77,76,12.77,78
197,georgetown,MY,1586629092,5.41,100.34,83.07,84.2,88,4.7,20
198,chudovo,RU,1586629372,59.12,31.68,33.26,33.26,89,3.36,72
199,codrington,AU,1586629002,-38.27,141.97,51.37,51.37,73,11.7,64
200,forrest city,US,1586629083,35.01,-90.79,64.06,64.99,39,12.75,1
201,kenitra,MA,1586629222,34.26,-6.58,65.62,66.2,77,8.05,40
202,geraldton,AU,1586628996,-28.77,114.6,68.72,70.0,94,3.36,29
203,thinadhoo,MV,1586629373,0.53,72.93,84.81,84.81,61,5.46,13
204,fernandez,AR,1586629373,-27.92,-63.89,80.22,80.22,35,10.76,0
205,narsaq,GL,1586629373,60.92,-46.05,55.4,55.4,20,26.4,75
206,flinders,AU,1586628954,-34.58,150.86,53.06,55.0,50,14.99,3
207,nhulunbuy,AU,1586629374,-12.23,136.77,81.77,81.77,80,10.54,52
208,chuy,UY,1586629066,-33.7,-53.46,70.47,70.47,55,6.38,24
209,butzow,DE,1586629374,53.85,11.98,52.86,57.2,68,2.24,75
210,pangnirtung,CA,1586629374,66.15,-65.71,21.2,21.2,67,2.24,40
211,sibolga,ID,1586629375,1.74,98.78,78.98,78.98,76,2.08,91
212,paamiut,GL,1586629049,61.99,-49.67,40.26,40.26,71,5.93,94
213,mersing,MY,1586629375,2.43,103.84,80.6,80.6,88,2.24,62
214,kangaatsiaq,GL,1586629375,68.31,-53.46,30.49,30.49,87,0.63,88
215,rawson,AR,1586629218,-43.3,-65.1,63.81,63.81,29,16.6,3
216,pavilosta,LV,1586629375,56.89,21.19,40.19,41.0,93,8.05,47
217,olinda,BR,1586629376,-8.01,-34.86,87.8,87.8,62,10.29,20
218,cidreira,BR,1586629157,-30.18,-50.21,71.42,71.42,56,7.56,18
219,iqaluit,CA,1586629029,63.75,-68.51,23.0,23.0,79,2.51,90
220,namibe,AO,1586629064,-15.2,12.15,77.36,77.36,67,6.02,4
221,eureka,US,1586629359,40.8,-124.16,54.07,57.0,100,8.05,90
222,shache,CN,1586629376,38.42,77.24,63.99,63.99,15,3.94,67
223,fortuna foothills,US,1586629376,32.66,-114.41,61.11,62.01,63,4.7,75
224,saint-pierre,RE,1586629170,-21.34,55.48,71.33,77.0,78,5.82,43
225,lebu,CL,1586629175,-37.62,-73.65,59.7,59.7,56,16.24,0
226,juneau,US,1586629377,58.3,-134.42,37.26,37.4,44,3.36,20
227,russell,US,1586629182,32.35,-85.2,69.26,73.0,28,4.7,1
228,jacobina,BR,1586629377,-11.18,-40.52,77.43,77.43,70,0.16,100
229,san cristobal,VE,1586629378,7.77,-72.22,91.4,91.4,43,20.8,40
230,terrace,CA,1586629186,54.52,-128.6,39.2,39.2,38,13.87,5
231,naters,CH,1586629378,46.33,7.99,52.83,69.8,34,11.41,44
232,tual,ID,1586629378,-5.67,132.75,83.39,83.39,72,3.42,17
233,anloga,GH,1586629328,5.79,0.9,86.0,86.0,74,11.41,20
234,salinopolis,BR,1586629379,-0.61,-47.36,82.51,82.51,82,11.7,72
235,urumqi,CN,1586629379,43.8,87.6,51.8,51.8,43,2.24,46
236,charlestown,AU,1586629276,-32.95,151.67,55.08,57.0,58,9.17,0
237,hastinapur,IN,1586629379,29.17,78.02,80.31,80.31,23,5.77,0
238,vila franca do campo,PT,1586629380,37.72,-25.43,62.6,62.6,63,18.34,20
239,grafton,US,1586629276,42.21,-71.69,49.51,53.01,31,17.22,1
240,shetpe,KZ,1586629380,44.17,52.12,48.2,48.2,50,11.03,1
241,terrak,NO,1586629380,65.09,12.37,39.11,39.2,55,6.93,100
242,ketchikan,US,1586629380,55.34,-131.65,43.88,44.6,36,6.93,1
243,kulevcha,UA,1586629380,46.03,29.94,49.78,49.78,47,4.97,0
244,fairbanks,US,1586629195,64.84,-147.72,26.92,33.01,79,3.69,1
245,norman wells,CA,1586629275,65.28,-126.83,24.8,24.8,85,8.05,75
246,gondanglegi,ID,1586629381,-7.75,112.01,75.13,75.13,85,1.77,64
247,suarez,CO,1586629381,2.95,-76.7,78.85,78.85,54,2.48,82
248,boyolangu,ID,1586629381,-8.12,111.89,76.69,76.69,80,0.87,46
249,altamont,US,1586629381,42.21,-121.74,56.37,57.0,54,6.93,1
250,mikuni,JP,1586629382,36.22,136.15,41.0,41.0,75,3.36,40
251,itarsi,IN,1586629382,22.62,77.75,87.66,87.66,16,3.69,20
252,kodinsk,RU,1586629382,58.69,99.18,28.99,28.99,95,2.66,12
253,acarau,BR,1586629382,-2.89,-40.12,84.27,84.27,77,7.58,100
254,saquena,PE,1586629383,-4.67,-73.52,82.31,82.31,82,1.68,84
255,aksay,RU,1586629383,47.26,39.87,44.08,45.0,41,4.47,91
256,kieta,PG,1586629383,-6.22,155.63,79.7,79.7,79,3.65,84
257,malkangiri,IN,1586629383,18.35,81.9,82.42,82.42,46,1.68,9
258,rovaniemi,FI,1586629248,66.5,25.72,32.0,32.0,95,6.93,18
259,avera,US,1586629330,33.19,-82.53,70.45,73.0,21,6.93,1
260,carutapera,BR,1586629384,-1.2,-46.02,82.27,82.27,82,8.81,83
261,chabahar,IR,1586629384,25.29,60.64,79.12,79.12,72,5.79,82
262,talnakh,RU,1586628988,69.49,88.4,32.0,32.0,97,35.79,75
263,nantucket,US,1586629063,41.28,-70.1,50.59,51.8,39,24.16,1
264,parrita,CR,1586629384,9.52,-84.32,83.28,87.8,48,11.41,100
265,bukachacha,RU,1586629385,52.98,116.92,38.7,38.7,51,1.39,0
266,diveyevo,RU,1586629385,55.04,43.24,37.04,37.04,70,11.54,100
267,moose factory,CA,1586629385,51.26,-80.61,32.0,32.0,95,5.82,90
268,ust-nera,RU,1586629385,64.57,143.2,15.22,15.22,86,4.79,31
269,harper,LR,1586629385,4.38,-7.72,83.3,83.3,74,4.88,87
270,antalaha,MG,1586629386,-14.9,50.28,77.85,77.85,81,11.12,4
271,alice springs,AU,1586629209,-23.7,133.88,59.0,59.0,33,4.7,44
272,kiunga,PG,1586629386,-6.12,141.29,73.99,73.99,97,0.36,99
273,finschhafen,PG,1586629386,-6.6,147.87,81.54,81.54,74,3.96,76
274,hobyo,SO,1586629352,5.35,48.53,83.71,83.71,66,15.01,0
275,punto fijo,VE,1586629386,11.7,-70.2,83.98,83.98,71,25.9,38
276,deputatskiy,RU,1586628728,69.3,139.9,22.01,22.01,92,14.65,93
277,launceston,AU,1586629387,-41.45,147.17,44.87,50.0,87,5.82,40
278,monterey,US,1586629386,36.25,-121.25,56.43,61.0,76,4.7,90
279,guerrero negro,MX,1586629387,27.98,-114.06,65.91,65.91,50,12.44,67
280,lavrentiya,RU,1586628728,65.58,-171.0,27.84,27.84,98,10.51,99
281,sarangani,PH,1586629387,5.4,125.46,81.81,81.81,78,11.59,0
282,nakhon thai,TH,1586629388,17.1,100.84,86.54,87.01,31,1.83,27
283,parana,AR,1586629135,-31.73,-60.52,79.47,82.0,33,4.0,0
284,inhambane,MZ,1586629388,-23.86,35.38,74.25,74.25,77,6.35,100
285,westlock,CA,1586629388,54.15,-113.87,23.97,24.8,58,18.34,40
286,chara,RU,1586629388,56.91,118.26,33.8,33.8,60,1.72,98
287,kidal,ML,1586629389,18.44,1.41,96.04,96.04,12,6.49,55
288,saskylakh,RU,1586628967,71.92,114.08,4.77,4.77,90,17.72,87
289,vila velha,BR,1586629350,-20.33,-40.29,77.67,78.01,83,10.29,75
290,dwarka,IN,1586629389,22.24,68.97,80.53,80.53,72,10.22,39
291,nuuk,GL,1586629334,64.18,-51.72,37.2,37.4,69,9.17,75
292,lagoa,PT,1586629389,39.05,-27.98,61.81,61.81,70,10.65,0
293,bonavista,CA,1586629390,48.65,-53.11,42.01,42.01,73,10.0,91
294,ust-tsilma,RU,1586629146,65.44,52.15,18.7,18.7,94,2.89,63
295,sorong,ID,1586629120,-0.88,131.25,76.64,76.64,89,0.63,4
296,valera,VE,1586629390,9.32,-70.6,88.27,88.27,43,3.42,100
297,kochubey,RU,1586629390,44.39,46.58,55.33,55.33,56,9.75,53
298,severo-kurilsk,RU,1586629107,50.68,156.12,26.91,26.91,94,10.94,57
299,umba,RU,1586629391,66.69,34.34,26.82,26.82,93,7.0,51
300,ayan,RU,1586629089,56.45,138.17,31.59,31.59,89,15.23,0
301,halifax,CA,1586629367,44.65,-63.57,44.1,48.0,56,19.46,75
302,adelaide,AU,1586629239,-34.93,138.6,52.38,55.99,66,2.24,75
303,japura,ID,1586629391,-0.32,102.35,73.89,73.89,92,0.81,99
304,talara,PE,1586629388,-4.58,-81.27,62.6,62.6,100,8.05,97
305,raychikhinsk,RU,1586629392,49.78,129.41,38.68,38.68,75,5.59,6
306,milton,US,1586629216,34.13,-84.3,66.04,71.01,17,4.7,1
307,san luis de palenque,CO,1586629392,5.42,-71.73,88.56,88.56,53,5.93,84
308,coamo,PR,1586629392,18.08,-66.36,87.21,91.0,74,10.29,40
309,ambanja,MG,1586629392,-13.68,48.45,79.18,79.18,81,2.91,14
310,sungaipenuh,ID,1586629392,-2.08,101.38,68.2,68.2,73,0.54,100
311,karaton,ID,1586629393,-6.34,106.1,80.26,80.6,78,4.7,20
312,sioux lookout,CA,1586629393,50.1,-91.92,32.0,32.0,76,13.87,90
313,vytegra,RU,1586629393,61.01,36.45,27.81,27.81,89,3.11,35
314,srednekolymsk,RU,1586629393,67.45,153.68,14.95,14.95,95,9.57,1
315,lisakovsk,KZ,1586629245,52.54,62.49,39.07,39.07,71,6.06,90
316,maarianhamina,AX,1586629394,60.1,19.93,39.2,39.2,60,8.05,95
317,sugar hill,US,1586629204,34.11,-84.03,65.73,70.0,25,5.37,1
318,veraval,IN,1586629394,20.9,70.37,80.22,80.22,64,12.88,2
319,sola,VU,1586629394,-13.88,167.55,80.51,80.51,75,12.82,34
320,baraboo,US,1586629189,43.47,-89.74,58.06,60.01,33,8.05,40
321,weligama,LK,1586629394,5.97,80.42,78.57,78.57,85,5.23,4
322,saint-augustin,CA,1586629394,51.23,-58.65,33.17,33.17,95,5.91,100
323,fort nelson,CA,1586629259,58.81,-122.7,24.8,24.8,58,3.36,75
324,ascension,US,1586629175,30.22,-90.9,75.11,79.0,44,10.29,1
325,pevek,RU,1586629043,69.7,170.31,5.49,5.49,93,14.0,98
326,lorengau,PG,1586629395,-2.02,147.27,81.72,81.72,75,2.77,55
327,batemans bay,AU,1586629395,-35.72,150.18,37.0,37.0,88,9.4,9
328,kondinskoye,RU,1586629395,59.65,67.41,36.05,36.05,83,8.99,3
329,faya,SA,1586629105,18.39,42.45,64.4,64.4,82,6.93,14
330,livani,LV,1586629396,56.35,26.18,39.34,39.34,67,5.12,64
331,sept-iles,CA,1586629279,50.2,-66.38,41.0,41.0,38,17.22,75
332,garowe,SO,1586629396,8.41,48.48,80.96,80.96,48,18.48,1
333,kawalu,ID,1586629396,-7.38,108.21,73.06,73.06,81,1.14,36
334,kudahuvadhoo,MV,1586629397,2.67,72.89,85.26,85.26,63,3.44,5
335,katsuura,JP,1586629331,35.13,140.3,48.49,50.0,93,11.41,75
336,kenora,CA,1586629397,49.82,-94.43,30.54,33.8,63,12.75,90
337,san juan,AR,1586629397,-31.54,-68.54,78.62,78.62,28,8.32,69
338,abu samrah,SY,1586629131,35.3,37.18,55.35,55.35,65,10.58,29
339,port elizabeth,ZA,1586629027,-33.92,25.57,59.0,59.0,72,3.36,100
340,husavik,IS,1586629397,66.04,-17.34,37.4,37.4,93,18.34,75
341,airai,TL,1586629087,-8.93,125.41,60.96,60.96,72,1.48,49
342,mar del plata,AR,1586628845,-38.0,-57.56,71.2,73.0,60,14.99,40
343,nishihara,JP,1586629398,26.18,127.76,68.47,69.8,88,6.93,90
344,garissa,KE,1586629398,-0.45,39.64,85.87,85.87,58,15.5,100
345,san joaquin,VE,1586629398,10.26,-67.79,84.34,84.34,45,6.13,39
346,cabo san lucas,MX,1586628896,22.89,-109.91,70.09,75.2,49,23.04,40
347,batavia,US,1586629150,41.85,-88.31,59.23,61.0,33,12.75,90
348,mackay,AU,1586628778,-21.15,149.2,72.28,73.4,88,4.7,40
349,maragogi,BR,1586629258,-9.01,-35.22,86.18,86.18,61,10.8,53
350,duluth,US,1586629399,46.78,-92.11,51.69,55.4,37,12.75,40
351,masty,BY,1586629399,53.41,24.54,39.51,39.51,62,3.91,0
352,klaeng,TH,1586629399,12.78,101.65,82.0,82.0,10,5.12,16
353,ajdabiya,LY,1586629400,30.76,20.23,63.16,63.16,52,14.85,100
354,balaipungut,ID,1586629400,1.05,101.28,80.6,80.6,88,1.39,20
355,bilma,NE,1586629400,18.69,12.92,84.92,84.92,12,5.66,99
356,ixtapa,MX,1586629244,20.7,-105.2,80.29,80.6,57,10.29,75
357,sainte-marie,RE,1586629400,-20.9,55.55,71.26,77.0,65,12.75,64
358,vardo,NO,1586629018,70.37,31.11,28.76,28.76,89,10.45,98
359,muli,MV,1586629329,2.92,73.57,85.48,85.48,63,4.12,4
360,longyearbyen,SJ,1586629086,78.22,15.64,-0.4,-0.4,64,5.12,20
361,ati,TD,1586629401,13.22,18.34,93.15,93.15,11,13.29,79
362,malakal,SS,1586629401,9.53,31.66,90.19,90.19,31,3.96,56
363,buta,CD,1586629401,2.79,24.73,73.15,73.15,84,2.84,92
364,pishin,PK,1586629401,30.58,67.0,66.33,66.33,29,5.17,67
365,ancud,CL,1586629402,-41.87,-73.82,53.6,53.6,54,8.05,20
366,itoman,JP,1586629402,26.12,127.67,68.54,69.8,94,18.34,75
367,shellbrook,CA,1586629402,53.22,-106.4,21.2,21.2,57,18.34,75
368,kaoma,ZM,1586629402,-14.78,24.8,66.15,66.15,64,5.12,97
369,pervomaysk,UA,1586629402,48.04,30.85,48.51,48.51,49,8.05,43
370,estevan,CA,1586629403,49.13,-102.98,32.85,33.8,54,25.28,40
371,grand gaube,MU,1586629403,-20.01,57.66,76.96,78.01,83,10.29,40
372,puqi,CN,1586629403,29.72,113.88,47.59,47.59,72,1.95,25
373,ilo,PE,1586629403,-17.64,-71.34,74.03,74.03,71,9.31,55
374,ellisras,ZA,1586629403,-23.66,27.74,71.22,71.22,31,2.71,14
375,hollister,US,1586629404,36.85,-121.4,56.34,61.0,76,4.7,90
376,liverpool,GB,1586628928,53.41,-2.98,60.42,64.99,77,11.41,19
377,alekseyevsk,RU,1586629404,57.84,108.35,29.93,29.93,93,2.68,93
378,coihaique,CL,1586629304,-45.58,-72.07,50.47,51.8,48,8.05,40
379,shingu,JP,1586629211,33.73,135.98,49.71,49.71,52,3.96,100
380,pacific grove,US,1586629384,36.62,-121.92,55.65,59.0,76,5.82,90
381,bulaevo,KZ,1586629404,54.91,70.44,45.52,45.52,56,3.0,71
382,labis,MY,1586629405,2.38,103.02,75.4,75.4,90,2.53,100
383,peleduy,RU,1586629405,59.63,112.74,30.63,30.63,92,4.83,98
384,maneadero,MX,1586629405,31.72,-116.57,62.17,64.0,80,1.01,39
385,shebunino,RU,1586629405,46.43,141.86,28.29,28.29,94,6.06,17
386,santa cruz,BO,1586629259,-17.8,-63.17,87.8,87.8,33,5.3,21
387,ahipara,NZ,1586629405,-35.17,173.17,62.2,62.2,80,11.18,43
388,westport,US,1586629405,41.14,-73.36,50.79,54.0,27,13.87,40
389,monrovia,LR,1586629406,6.3,-10.8,84.15,84.15,72,8.3,78
390,payakumbuh,ID,1586629406,-0.22,100.63,72.07,72.07,78,0.36,98
391,havoysund,NO,1586629406,71.0,24.66,30.2,30.2,74,5.82,100
392,peterhead,GB,1586629226,57.51,-1.8,58.66,61.0,41,4.7,69
393,korla,CN,1586629406,41.76,86.15,55.0,55.0,44,5.99,17
394,hamilton,US,1586629059,39.18,-84.53,57.83,62.01,30,9.17,90
395,kresttsy,RU,1586629407,58.25,32.52,33.31,33.31,87,3.27,80
396,haines junction,CA,1586629407,60.75,-137.51,26.56,26.56,74,0.47,0
397,little current,CA,1586629407,45.98,-81.92,41.54,42.01,56,9.17,1
398,matveyevka,RU,1586629407,52.15,56.18,41.0,41.0,75,11.18,47
399,fallon,US,1586629407,39.47,-118.78,61.36,64.0,44,5.82,1
400,yanam,IN,1586629407,16.73,82.22,80.89,80.89,80,4.81,0
401,tabuk,PH,1586629407,17.42,121.44,72.57,72.57,83,1.23,5
402,kilindoni,TZ,1586629408,-7.91,39.67,83.25,83.25,79,20.76,100
403,awjilah,LY,1586629408,29.11,21.29,66.9,66.9,26,7.58,41
404,ken caryl,US,1586629408,39.58,-105.12,63.91,70.0,13,5.82,20
405,gigmoto,PH,1586629408,13.78,124.39,80.82,80.82,77,4.79,19
406,khatanga,RU,1586629027,71.97,102.5,0.52,0.52,92,10.36,64
407,wanning,CN,1586629409,18.8,110.4,75.07,75.07,89,3.71,46
408,velsk,RU,1586629409,61.07,42.1,26.4,26.4,93,2.91,100
409,bosobolo,CD,1586629409,4.18,19.9,73.06,73.06,79,3.67,91
410,madang,PG,1586629409,-5.22,145.8,78.04,78.04,83,4.32,91
411,toba,JP,1586629409,34.48,136.85,49.37,50.0,57,8.05,75
412,port hardy,CA,1586629365,50.7,-127.42,46.4,46.4,81,4.7,40
413,tanout,NE,1586629410,14.97,8.89,88.3,88.3,10,10.45,69
414,minas,UY,1586629410,-34.38,-55.24,69.39,69.8,73,11.41,40
415,eyl,SO,1586629410,7.98,49.82,83.16,83.16,69,14.36,0
416,riyadh,SA,1586629363,24.69,46.72,80.6,80.6,32,10.29,75
417,houma,US,1586629147,29.6,-90.72,74.62,77.0,56,14.99,1
418,nerchinskiy zavod,RU,1586629411,51.31,119.61,39.52,39.52,47,1.79,0
419,villarrobledo,ES,1586629411,39.27,-2.6,58.33,60.01,50,5.01,99
420,donskoye,RU,1586629411,45.46,41.97,44.31,44.6,65,13.42,58
421,bonoua,CI,1586629411,5.27,-3.6,86.0,86.0,74,10.29,20
422,puerto carreno,CO,1586629411,6.19,-67.49,93.2,93.2,44,8.84,40
423,huadian,CN,1586629412,42.96,126.75,36.88,36.88,68,6.53,13
424,maceio,BR,1586629175,-9.67,-35.74,87.8,87.8,66,13.87,20
425,keti bandar,PK,1586629412,24.14,67.45,79.03,79.03,72,11.1,83
426,mtambile,TZ,1586629412,-5.38,39.7,79.9,79.9,88,19.48,100
427,buchanan,LR,1586629413,5.88,-10.05,83.19,83.19,74,7.67,71
428,mananara,MG,1586629413,-16.17,49.77,77.0,77.0,82,9.82,14
429,kongoussi,BF,1586629413,13.33,-1.53,98.13,98.13,16,11.99,97
430,ostrovnoy,RU,1586629129,68.05,39.51,16.47,16.47,94,11.01,73
431,brae,GB,1586629121,60.4,-1.35,46.4,46.4,100,21.92,97
432,lamar,US,1586629413,33.67,-95.58,64.87,66.2,63,12.75,75
433,katherine,AU,1586629054,-14.47,132.27,75.2,75.2,88,3.36,75
434,thaba nchu,ZA,1586629414,-29.21,26.84,64.4,64.4,82,2.24,50
435,pokhara,NP,1586629150,28.23,83.98,64.56,64.56,19,6.02,32
436,belmonte,BR,1586629414,-15.86,-38.88,80.6,80.6,78,8.05,40
437,tsiroanomandidy,MG,1586629414,-18.77,46.03,69.39,69.39,56,3.78,29
438,beira,MZ,1586629414,-19.84,34.84,73.63,73.63,74,5.59,60
439,nalut,LY,1586629415,30.33,10.85,76.64,76.64,15,6.02,3
440,marystown,CA,1586629339,47.17,-55.15,34.39,34.39,87,23.4,62
441,san jose,US,1586628720,37.34,-121.89,55.38,59.0,71,1.68,90
442,marawi,PH,1586629415,8.0,124.29,66.54,66.54,70,2.3,0
443,singapore,SG,1586629123,1.29,103.85,81.16,84.2,79,4.7,75
444,coari,BR,1586629415,-4.08,-63.14,86.29,86.29,77,2.13,75
445,staraya kulatka,RU,1586629416,52.72,47.62,46.0,46.0,54,11.03,100
446,jintur,IN,1586629416,19.62,76.7,87.85,87.85,14,6.82,28
447,arman,RU,1586629416,59.7,150.17,19.13,19.13,92,5.21,100
448,port hawkesbury,CA,1586629416,45.62,-61.35,39.65,44.01,55,24.16,75
449,mancio lima,BR,1586629416,-7.61,-72.9,78.8,78.8,100,3.36,75
450,hudson bay,CA,1586629416,52.85,-102.38,22.48,22.48,88,13.18,85
451,viradouro,BR,1586629417,-20.87,-48.3,86.0,86.0,25,6.93,0
452,linjiang,CN,1586629417,41.81,126.91,35.55,35.55,71,4.72,13
453,oksfjord,NO,1586629417,70.24,22.35,29.1,30.2,68,13.87,92
454,rafaela,AR,1586629182,-31.25,-61.49,78.55,82.0,28,5.01,0
455,derzhavinsk,KZ,1586629417,51.1,66.32,43.74,43.74,56,10.85,95
456,te anau,NZ,1586629333,-45.42,167.72,52.38,52.38,69,4.18,91
457,xiaoweizhai,CN,1586629418,26.19,107.51,43.72,43.72,61,5.46,16
458,yamada,JP,1586629418,39.47,141.95,38.3,38.3,75,5.88,12
459,takab,IR,1586629187,36.4,47.11,42.98,42.98,39,5.44,99
460,saint-joseph,RE,1586629405,-21.37,55.62,70.56,77.0,78,5.82,48
461,pisco,PE,1586629033,-13.7,-76.22,72.21,73.0,30,11.41,1
462,yarada,IN,1586629418,17.65,83.27,82.4,82.4,78,2.24,75
463,berlevag,NO,1586629419,70.86,29.09,25.21,25.21,89,6.62,95
464,tumut,AU,1586629419,-35.3,148.22,41.94,41.94,72,3.13,6
465,witzenhausen,DE,1586629419,51.33,9.87,54.59,60.01,44,5.26,68
466,tanete,ID,1586629419,-3.94,119.78,76.77,76.77,87,4.36,86
467,fort smith,US,1586629209,35.39,-94.4,67.1,68.0,40,4.7,90
468,manaure,CO,1586629420,11.78,-72.44,87.8,87.8,70,16.11,20
469,magadan,RU,1586629420,59.57,150.8,16.74,16.74,91,9.53,100
470,galle,LK,1586629420,6.04,80.22,80.56,80.56,80,5.84,6
471,san patricio,MX,1586628963,19.22,-104.7,86.0,86.0,74,11.41,40
472,praia,CV,1586629420,14.92,-23.51,84.2,84.2,45,16.11,2
473,coquimbo,CL,1586629420,-29.95,-71.34,64.4,64.4,63,9.17,100
474,komsomolskiy,UZ,1586629359,40.43,71.72,55.4,55.4,82,4.7,90
475,port augusta,AU,1586629255,-32.5,137.77,50.5,57.2,67,10.29,40
476,dombas,NO,1586629421,62.07,9.12,30.4,30.4,75,5.26,100
477,hambantota,LK,1586629259,6.12,81.12,82.18,82.18,79,11.61,16
478,kobyli,CZ,1586629421,48.93,16.89,55.17,57.99,35,6.93,15
479,tete,MZ,1586629421,-16.16,33.59,84.2,84.2,48,11.41,40
480,egvekinot,RU,1586629324,66.32,-179.17,7.95,7.95,75,3.02,13
481,fort frances,CA,1586629422,48.6,-93.4,40.87,42.01,41,13.87,75
482,dalbandin,PK,1586629422,28.89,64.41,82.24,82.24,20,3.36,77
483,naze,JP,1586629422,28.37,129.48,68.0,68.0,82,16.11,75
484,sandy bay,AU,1586629422,-42.91,147.35,49.23,52.0,62,10.29,90
485,udachnyy,RU,1586629422,66.42,112.4,26.6,26.6,68,6.71,90
486,talakan,RU,1586629423,50.32,130.37,35.98,35.98,78,2.08,1
487,the valley,AI,1586628955,18.22,-63.06,87.8,87.8,66,8.05,20
488,rocha,UY,1586629387,-34.48,-54.33,69.76,69.76,58,5.14,42
489,mitsamiouli,KM,1586629423,-11.38,43.28,84.24,84.24,75,12.24,41
490,amurzet,RU,1586629423,47.7,131.1,39.34,39.34,67,4.65,49
491,kindersley,CA,1586629423,51.47,-109.17,24.44,24.8,53,20.8,90
492,namatanai,PG,1586629174,-3.67,152.43,81.73,81.73,75,4.18,84
493,caninde,BR,1586629424,-4.36,-39.31,84.31,84.31,70,7.2,70
494,keetmanshoop,NA,1586629424,-26.58,18.13,86.0,86.0,12,12.75,0
495,pontianak,ID,1586629424,-0.03,109.33,77.65,77.65,88,4.05,79
496,pietarsaari,FI,1586629424,63.65,22.68,30.63,33.01,50,3.36,64
497,severnyy,RU,1586629424,50.68,36.55,35.6,35.6,71,11.18,75
498,henties bay,NA,1586629192,-22.12,14.28,72.64,72.64,58,10.33,0
499,kerrville,US,1586629425,30.05,-99.14,66.56,70.0,88,6.93,90
500,warmbad,NA,1586629178,-28.45,18.73,77.34,77.34,14,14.81,0
501,batagay-alyta,RU,1586629425,67.8,130.41,18.27,18.27,86,6.08,100
502,tigil,RU,1586629381,57.8,158.67,8.87,8.87,88,3.09,0
503,mizdah,LY,1586629425,31.45,12.98,62.8,62.8,42,13.76,14
504,wawa,NG,1586629425,9.9,4.42,90.5,90.5,32,3.53,88
505,shelburne,CA,1586629426,44.08,-80.2,41.83,44.01,52,6.93,90
506,matiari,PK,1586629426,25.6,68.45,84.2,84.2,45,11.07,100
507,walvis bay,NA,1586629426,-22.96,14.51,84.2,84.2,45,14.99,0
508,shar,KZ,1586629426,49.59,81.05,35.46,35.46,69,4.07,19
509,paita,PE,1586629426,-5.09,-81.11,62.6,62.6,100,8.05,98
510,indianola,US,1586629427,41.36,-93.56,55.87,62.6,48,11.41,75
511,ayna,PE,1586629427,-12.65,-73.92,73.4,73.4,31,2.24,61
512,marzuq,YE,1586629176,14.4,46.47,74.53,74.53,45,7.36,3
513,upington,ZA,1586629427,-28.45,21.26,75.2,75.2,29,4.7,20
514,flin flon,CA,1586629421,54.77,-101.86,19.4,19.4,44,19.46,75
515,katobu,ID,1586629301,-4.94,122.53,75.02,75.02,93,1.63,100
516,kaeo,NZ,1586629348,-35.1,173.78,53.49,55.0,93,9.26,27
517,nova olimpia,BR,1586629428,-14.8,-57.29,87.58,87.58,56,3.0,40
518,banjarmasin,ID,1586629428,-3.32,114.59,77.0,77.0,100,1.12,90
519,sungai padi,TH,1586629428,6.09,101.88,84.11,84.2,83,3.36,20
520,dagda,LV,1586629428,56.1,27.54,36.61,36.61,70,4.79,58
521,rio grande,BR,1586629182,-32.03,-52.1,77.0,77.0,47,5.82,20
522,waddan,LY,1586629428,29.16,16.14,69.33,69.33,23,15.21,13
523,bakel,SN,1586629429,14.9,-12.46,105.94,105.94,7,4.43,7
524,gat,IL,1586629323,31.61,34.76,56.07,60.8,77,2.24,20
525,koumac,NC,1586629429,-20.57,164.28,74.05,74.05,75,5.64,30
526,pandan niog,PH,1586629429,6.23,120.56,82.18,82.18,71,3.09,0
527,praia da vitoria,PT,1586629430,38.73,-27.07,64.4,64.4,72,11.77,20
528,burnie,AU,1586629430,-41.07,145.92,51.51,52.0,64,11.01,35
529,williston,US,1586629430,48.15,-103.62,34.12,35.6,37,19.46,1
530,lipari,IT,1586629430,38.47,14.95,58.96,61.0,72,2.24,40
531,jalingo,NG,1586629327,8.88,11.37,85.08,85.08,45,7.0,100
532,aykhal,RU,1586628797,66.0,111.5,28.4,28.4,63,6.71,88
533,mjolby,SE,1586629431,58.33,15.12,49.15,53.6,40,10.29,100
534,half moon bay,US,1586629255,37.46,-122.43,54.91,59.0,81,4.7,90
535,irbeyskoye,RU,1586629431,55.64,95.45,31.82,31.82,85,4.27,2
536,tilichiki,RU,1586629431,60.47,166.1,0.52,0.52,89,6.42,3
537,wanaka,NZ,1586629431,-44.7,169.15,48.9,48.9,66,6.24,90
538,grand-lahou,CI,1586629431,5.14,-5.02,83.25,83.25,80,8.23,61
539,monte alegre,BR,1586629432,-2.01,-54.07,82.4,82.4,72,1.39,99
540,capim grosso,BR,1586629388,-11.38,-40.01,84.18,84.18,55,2.75,99
541,olafsvik,IS,1586629040,64.89,-23.71,37.87,37.87,77,30.65,37
542,bulata,PH,1586629432,9.86,122.4,81.37,81.37,74,6.06,5
543,sauda,NO,1586629432,59.65,6.35,44.24,46.0,85,4.65,100
544,san lawrenz,MT,1586629433,36.06,14.2,59.32,61.0,62,5.82,13
